City_ID,City,Lat,Lng,Max Temp,Humidity,Cloudiness,Wind Speed,Country,Date
0,tavda,58.0425,65.2726,19.09,64,84,2.3,RU,1691549328
1,bilibino,68.0546,166.4372,6.52,70,100,3.04,RU,1691549076
2,ushuaia,-54.8,-68.3,1.81,75,0,1.54,AR,1691549081
3,isabela,6.7085,121.9711,29.03,63,65,4.09,PH,1691549329
4,grytviken,-54.2811,-36.5092,-1.85,91,31,4.6,GS,1691549075
5,berkane,34.9084,-2.3461,25.82,77,36,0.8,MA,1691549331
6,whitehorse,60.7161,-135.0538,16.43,77,75,2.57,CA,1691549107
7,port elizabeth,-33.918,25.5701,14.16,94,75,0.51,ZA,1691549082
8,papatowai,-46.5619,169.4708,5.69,70,92,6.97,NZ,1691549126
9,sitka,57.0531,-135.33,15.94,82,100,2.57,US,1691549088
10,west island,-12.1568,96.8225,26.99,74,40,4.63,CC,1691548925
11,port-aux-francais,-49.35,70.2167,1.65,72,45,6.0,TF,1691549076
12,iqaluit,63.7506,-68.5145,4.85,86,20,4.12,CA,1691549086
13,longyearbyen,78.2186,15.6401,6.91,87,0,1.54,SJ,1691549084
14,blackmans bay,-43.0167,147.3167,13.74,59,100,3.45,AU,1691549078
15,belmonte,-15.8631,-38.8828,22.19,84,22,2.91,BR,1691549088
16,olonkinbyen,70.9221,-8.7187,5.01,91,100,10.73,SJ,1691549132
17,anadyr,64.75,177.4833,11.28,87,100,6.71,RU,1691549161
18,glace bay,46.1969,-59.957,18.21,91,100,8.23,CA,1691549336
19,stanley,54.868,-1.6985,10.71,85,0,3.09,GB,1691549087
20,vanino,49.0869,140.2543,18.02,77,98,1.3,RU,1691549337
21,toamasina,-18.1667,49.3833,19.0,94,75,2.06,MG,1691549338
22,morondava,-20.2833,44.2833,18.56,72,0,1.81,MG,1691549255
23,algeciras,36.1333,-5.4505,22.82,88,70,3.09,ES,1691549338
24,bethel,41.3712,-73.414,22.2,76,20,1.54,US,1691549078
25,thompson,55.7435,-97.8558,12.09,87,40,3.09,CA,1691549118
26,avarua,-21.2078,-159.775,24.03,60,20,4.63,CK,1691549087
27,colonia,50.9333,6.95,16.05,90,75,4.63,DE,1691549053
28,kourou,5.1552,-52.6478,25.03,89,59,3.8,GF,1691549340
29,edinburgh of the seven seas,-37.0676,-12.3116,12.29,71,100,11.32,SH,1691549084
30,adamstown,-25.066,-130.1015,22.23,85,95,15.43,PN,1691549075
31,aasiaat,68.7098,-52.8699,2.6,75,100,1.5,GL,1691549113
32,ko pha ngan,9.7578,100.0291,27.38,79,100,5.65,TH,1691549342
33,kodiak,57.79,-152.4072,13.73,88,100,3.09,US,1691549089
34,wailua homesteads,22.0669,-159.378,33.24,78,100,9.77,US,1691549100
35,sheridan,44.8333,-106.9173,18.21,88,0,2.06,US,1691549344
36,benguela,-12.5763,13.4055,18.85,92,9,1.4,AO,1691549218
37,kununurra,-15.7667,128.7333,27.99,30,5,3.6,AU,1691549112
38,west clarkston-highland,46.4029,-117.064,31.01,39,0,2.57,US,1691549345
39,kapa'a,22.0752,-159.319,33.99,78,100,9.77,US,1691548948
40,saint-pierre,-21.3393,55.4781,19.82,60,0,3.6,RE,1691549346
41,east london,-33.0153,27.9116,17.07,79,100,3.58,ZA,1691549080
42,anar darah,32.7587,61.654,30.08,21,0,8.0,AF,1691549347
43,atafu village,-8.5421,-172.5159,28.07,78,64,6.55,TK,1691549088
44,colac,-38.3333,143.5833,15.65,55,1,6.9,AU,1691549348
45,hermanus,-34.4187,19.2345,11.0,84,0,6.24,ZA,1691549105
46,port isabel,26.0734,-97.2086,30.02,80,0,5.66,US,1691549349
47,dudinka,69.4058,86.1778,21.46,51,87,1.39,RU,1691549187
48,alice springs,-23.7,133.8833,23.75,22,0,3.6,AU,1691549134
49,waitangi,-43.9535,-176.5597,9.34,83,100,2.24,NZ,1691549082
50,vorgashor,67.5833,63.95,8.52,73,100,1.93,RU,1691549086
51,ulu tiram,1.6,103.8167,31.53,79,40,2.06,MY,1691549350
52,guayaramerin,-10.8368,-65.3614,26.15,42,35,0.63,BO,1691549351
53,alo,7.4178,6.7371,21.67,98,89,1.39,NG,1691549351
54,camana,-16.6228,-72.7111,17.51,83,25,3.25,PE,1691549205
55,marlborough,-41.6667,173.5,8.11,75,90,0.87,NZ,1691549352
56,qaqortoq,60.7167,-46.0333,5.03,88,62,0.35,GL,1691549122
57,albany,42.6001,-73.9662,20.45,85,97,4.02,US,1691548905
58,al qaryatayn,34.2296,37.2407,21.13,80,0,0.81,SY,1691549354
59,kapuskasing,49.4169,-82.4331,18.05,82,20,0.0,CA,1691549094
60,badger,64.8,-147.5333,19.17,81,100,2.06,US,1691549110
61,hawaiian paradise park,19.5933,-154.9731,28.73,70,75,4.63,US,1691548854
62,jamestown,42.097,-79.2353,21.77,88,0,4.12,US,1691549076
63,margaret river,-33.95,115.0667,14.69,52,16,2.32,AU,1691549107
64,nar'yan-mar,67.6713,53.087,14.59,58,24,1.68,RU,1691549156
65,nikolayevsk-on-amure,53.1406,140.73,21.22,60,100,3.16,RU,1691549357
66,mili,6.0815,171.735,27.95,81,96,5.72,MH,1691549357
67,menongue,-14.6585,17.691,11.34,52,4,1.34,AO,1691549358
68,vernon,50.2581,-119.2691,27.56,35,87,1.54,CA,1691549181
69,nova sintra,14.8667,-24.7167,22.74,73,29,4.87,CV,1691549090
70,iskateley,67.6803,53.1512,14.48,59,23,1.66,RU,1691549083
71,punta arenas,-53.15,-70.9167,1.49,89,26,3.14,CL,1691548953
72,nkhotakota,-12.9274,34.2961,20.04,63,0,6.56,MW,1691549360
73,cottage grove,44.8277,-92.9438,25.07,67,0,2.06,US,1691549360
74,bubaque,11.2833,-15.8333,25.18,92,100,4.18,GW,1691549167
75,nadym,65.5333,72.5167,11.25,61,100,10.37,RU,1691549242
76,puerto natales,-51.7236,-72.4875,2.26,95,100,1.91,CL,1691549077
77,metz,49.1191,6.1727,17.18,77,0,4.12,FR,1691549362
78,bloemfontein,-29.1211,26.214,0.71,75,1,0.51,ZA,1691549225
79,betio village,1.358,172.9211,31.02,74,63,2.96,KI,1691549091
80,encruzilhada do sul,-30.5439,-52.5219,11.54,80,100,4.35,BR,1691549237
81,santa cruz,-17.8,-63.1667,19.7,64,0,2.06,BO,1691548796
82,paita,-5.0892,-81.1144,21.66,84,100,5.4,PE,1691549364
83,yellowknife,62.456,-114.3525,20.29,45,75,5.66,CA,1691549045
84,geraldton,-28.7667,114.6,18.23,63,0,5.66,AU,1691549197
85,kavaratti,10.5669,72.642,28.04,75,100,7.83,IN,1691549183
86,klyuchi,52.2667,79.1667,23.29,39,48,1.07,RU,1691549089
87,holualoa,19.6228,-155.9522,27.91,75,40,5.66,US,1691549107
88,plouzane,48.3833,-4.6167,15.18,100,100,1.54,FR,1691549367
89,ribeira grande,38.5167,-28.7,24.32,94,92,8.49,PT,1691549137
90,barcelona,41.3888,2.159,24.74,80,20,1.54,ES,1691549207
91,waddan,29.1614,16.139,21.18,80,0,2.78,LY,1691549139
92,sisimiut,66.9395,-53.6735,6.38,70,22,0.95,GL,1691549176
93,rio preto da eva,-2.6994,-59.6997,28.56,49,100,0.87,BR,1691549369
94,puerto ayora,-0.7393,-90.3518,23.68,76,88,4.3,EC,1691549081
95,kismayo,-0.3582,42.5454,24.06,84,23,6.67,SO,1691549370
96,ilulissat,69.2167,-51.1,6.01,75,75,0.51,GL,1691549117
97,hamilton,39.1834,-84.5333,23.74,77,40,4.63,US,1691548917
98,strezhevoy,60.7333,77.5889,20.07,53,72,3.91,RU,1691549076
99,saudarkrokur,65.7461,-19.6394,6.83,75,12,2.93,IS,1691549128
100,talnakh,69.4865,88.3972,21.23,45,77,0.26,RU,1691549127
101,college,64.8569,-147.8028,19.21,81,100,2.06,US,1691549034
102,port mathurin,-19.6833,63.4167,22.27,61,95,8.2,MU,1691549087
103,new london,41.4834,-72.0662,22.97,81,2,3.9,US,1691549373
104,arica,-18.475,-70.3042,19.13,77,100,3.6,CL,1691549374
105,san patricio,28.017,-97.5169,30.3,77,0,6.75,US,1691549316
106,invercargill,-46.4,168.35,6.68,73,92,4.92,NZ,1691548983
107,codrington,-38.2667,141.9667,15.44,61,0,9.08,AU,1691549116
108,georgetown,5.4112,100.3354,30.96,73,20,1.54,MY,1691549094
109,cooper's town,26.8667,-77.5167,30.14,69,7,3.89,BS,1691549376
110,kruisfontein,-34.0033,24.7314,12.71,90,100,2.23,ZA,1691549240
111,port lincoln,-34.7333,135.8667,19.6,41,10,11.31,AU,1691549219
112,saynshand,44.8824,110.1163,26.27,32,15,4.36,MN,1691549378
113,igrim,63.1906,64.4162,16.01,68,100,3.32,RU,1691549138
114,abbeville,50.1,1.8333,17.36,95,100,4.78,FR,1691549378
115,bayanhongor,46.7167,100.1167,15.36,71,100,0.87,MN,1691549379
116,sesheke,-17.4759,24.2968,13.12,56,0,2.44,ZM,1691549379
117,arno,60.1167,18.6333,14.32,76,0,7.58,SE,1691549234
118,balikpapan,-1.2675,116.8289,28.55,79,20,4.63,ID,1691549380
119,utrik,11.2278,169.8474,28.47,77,96,5.04,MH,1691549089
120,urla,38.3229,26.764,24.22,75,0,7.46,TR,1691549381
121,bargaal,11.2864,51.0773,27.4,60,100,12.7,SO,1691549381
122,tarauaca,-8.1614,-70.7656,23.84,88,96,1.06,BR,1691549382
123,muang khong,14.1167,105.85,29.13,76,37,2.83,LA,1691549382
124,val-d'or,48.1002,-77.7828,16.05,82,20,1.03,CA,1691549383
125,bredasdorp,-34.5322,20.0403,8.48,90,0,2.45,ZA,1691549076
126,andalgala,-27.5819,-66.3165,13.8,34,100,0.44,AR,1691549384
127,polyarnyy,69.1989,33.4478,16.14,79,0,4.42,RU,1691549146
128,joao pinheiro,-17.7425,-46.1725,19.74,33,0,3.78,BR,1691549324
129,poronaysk,49.2167,143.1167,18.13,76,100,2.13,RU,1691549385
130,baloda,22.15,82.4833,27.49,69,100,3.28,IN,1691549386
131,udachny,66.4167,112.4,26.36,31,6,8.01,RU,1691549090
132,chonchi,-42.6128,-73.8092,10.07,99,100,3.18,CL,1691549121
133,piacabucu,-10.4056,-36.4344,23.18,84,21,3.33,BR,1691549387
134,hinton,53.4001,-117.5857,15.18,87,100,0.76,CA,1691549388
135,namtsy,62.7161,129.6658,23.37,35,11,3.5,RU,1691549388
136,tiksi,71.6872,128.8694,18.2,44,7,1.32,RU,1691549077
137,letlhakeng,-24.0944,25.0298,10.3,32,14,3.06,BW,1691549389
138,kattivakkam,13.2167,80.3167,29.48,83,100,3.44,IN,1691549390
139,cabo san lucas,22.8909,-109.9124,33.67,70,20,5.66,MX,1691548828
140,mar del plata,-38.0023,-57.5575,8.38,87,25,4.12,AR,1691549132
141,al jawf,29.5,38.75,24.77,36,0,2.95,SA,1691549391
142,puerto armuelles,8.2833,-82.8667,27.27,91,100,1.34,PA,1691549210
143,ngong,-1.3618,36.6566,12.85,84,33,1.28,KE,1691549392
144,faya-largeau,17.9257,19.1043,29.38,56,83,4.86,TD,1691549393
145,umba,66.6871,34.3429,14.17,81,0,3.17,RU,1691549393
146,calama,-22.4667,-68.9333,10.88,17,9,3.25,CL,1691549047
147,ta`u,-14.2336,-169.5144,27.39,69,74,3.43,AS,1691549177
148,anahuac,27.2333,-100.15,34.27,36,0,11.37,MX,1691549394
149,luena,-11.7833,19.9167,12.24,52,0,1.49,AO,1691549395
150,lihue,21.9789,-159.3672,33.58,72,100,9.77,US,1691549096
151,fortuna,40.5982,-124.1573,17.21,85,0,3.6,US,1691549353
152,port alfred,-33.5906,26.891,13.99,97,100,4.79,ZA,1691549110
153,mgandu,-5.95,34.1333,13.89,73,6,3.11,TZ,1691549202
154,zhangye,38.9342,100.4517,33.64,20,12,8.54,CN,1691549397
155,extrema,-22.8547,-46.3183,15.14,93,99,2.39,BR,1691549398
156,nieuw amsterdam,5.8833,-55.0833,25.08,90,98,3.32,SR,1691549398
157,allen,41.0706,-85.0144,20.22,88,40,2.06,US,1691549144
158,champerico,14.3,-91.9167,29.04,75,99,2.01,GT,1691549399
159,kristiansund,63.1115,7.732,12.36,100,75,1.03,NO,1691549083
160,mabaruma,8.2,-59.7833,24.64,92,100,1.19,GY,1691549400
161,kirensk,57.7853,108.1119,25.05,52,97,2.45,RU,1691549400
162,colchani,-20.3,-66.9333,2.75,29,0,3.81,BO,1691549219
163,lompoc,34.6391,-120.4579,22.08,84,0,2.06,US,1691549128
164,st. thomas,42.7736,-81.1804,19.3,85,41,3.08,CA,1691549377
165,freetown,8.484,-13.2299,24.9,87,71,3.43,SL,1691549187
166,isafjordur,66.0755,-23.124,9.56,62,14,1.77,IS,1691549091
167,lebu,-37.6167,-73.65,11.07,69,100,3.94,CL,1691549133
168,tolanaro,-25.0319,46.9987,20.04,94,40,4.12,MG,1691549093
169,phan thiet,10.9333,108.1,31.09,61,0,5.81,VN,1691549236
170,tazacorte,28.629,-17.9293,21.54,73,0,1.79,ES,1691549130
171,envira,-7.3,-70.2167,22.3,97,63,1.35,BR,1691549198
172,zyryanovsk,49.7386,84.2719,16.53,85,100,0.63,KZ,1691549406
173,masumbwe,-3.6333,32.1833,18.45,53,55,2.07,TZ,1691549406
174,hirara,24.8,125.2833,30.15,84,75,5.66,JP,1691549407
175,jakobstad,63.6749,22.7026,13.35,83,0,6.09,FI,1691549407
176,fort st. john,56.2499,-120.8529,18.94,68,75,3.09,CA,1691549408
177,vila franca do campo,37.7167,-25.4333,23.23,90,91,4.89,PT,1691549237
178,san andres,12.5847,-81.7006,29.01,84,20,4.12,CO,1691549151
179,ola,59.5833,151.2833,20.08,56,43,4.59,RU,1691549215
180,tazovsky,67.4667,78.7,9.67,94,100,6.85,RU,1691549158
181,morada nova,-5.1067,-38.3725,24.2,75,94,2.44,BR,1691549410
182,afaahiti,-17.75,-149.2833,23.93,84,100,8.86,PF,1691549134
183,nchelenge,-9.3451,28.734,16.91,48,4,2.49,ZM,1691549411
184,constantia,44.1833,28.65,13.38,74,0,3.39,RO,1691549045
185,fort mcmurray,56.7268,-111.381,18.73,55,20,4.12,CA,1691549412
186,sinop,41.7711,34.8709,16.35,87,0,1.56,TR,1691549152
187,praia da vitoria,38.7333,-27.0667,24.14,83,75,7.89,PT,1691549120
188,eraan,9.0629,117.7016,30.71,66,33,4.52,PH,1691549414
189,ketchikan,55.3422,-131.6461,16.26,88,75,5.14,US,1691549159
190,pont rouge,48.8833,-72.0825,15.16,97,100,2.93,CA,1691549415
191,nuuk,64.1835,-51.7216,4.34,93,20,3.6,GL,1691549197
192,flying fish cove,-10.4217,105.6791,25.82,83,100,6.69,CX,1691549200
193,maracacume,-2.0428,-45.9592,22.35,97,61,1.33,BR,1691549417
194,vilyuchinsk,52.9306,158.4028,23.15,54,69,2.16,RU,1691549115
195,tofol,5.3248,163.0078,28.88,74,100,1.54,FM,1691549091
196,montagu,-40.7667,144.9667,12.79,75,100,7.06,AU,1691549418
197,dengzhou,37.8086,120.7508,25.97,77,0,5.17,CN,1691549418
198,caconda,-13.7333,15.0667,12.91,58,5,0.28,AO,1691549419
199,bati,11.1833,40.0167,19.21,70,100,3.16,ET,1691549419
200,santander jimenez,24.2167,-98.4667,27.73,79,0,7.24,MX,1691549420
201,san mariano,7.5,126.0,30.57,60,100,2.34,PH,1691549420
202,gandai,21.6667,81.1,27.88,68,98,4.03,IN,1691549421
203,ust-nera,64.5667,143.2,19.41,47,83,1.45,RU,1691549090
204,lensk,60.7253,114.9278,27.6,47,43,2.38,RU,1691549421
205,darwin,-12.4611,130.8418,29.94,30,0,7.72,AU,1691549293
206,rustaq,23.3908,57.4244,34.37,39,13,0.46,OM,1691549422
207,kharp,66.8014,65.8081,11.61,73,100,2.85,RU,1691549423
208,leognan,44.7355,-0.5974,15.03,87,0,1.54,FR,1691549423
209,auki,-8.7676,160.7034,27.12,81,100,3.13,SB,1691549424
210,hotan,37.0997,79.9269,29.61,30,48,3.61,CN,1691549107
211,dunedin,-45.8742,170.5036,6.56,72,100,7.15,NZ,1691549118
212,lerwick,60.1545,-1.1494,10.0,78,100,14.57,GB,1691549425
213,yung shue wan,22.2333,114.1167,32.11,72,51,4.92,HK,1691549425
214,pandan,14.0453,124.1694,32.16,62,23,2.03,PH,1691549145
215,ciudad lazaro cardenas,17.9583,-102.2,28.89,84,25,3.15,MX,1691548831
216,sechura,-5.5569,-80.8222,22.31,78,100,6.15,PE,1691549140
217,rikaze,29.25,88.8833,18.32,45,42,1.72,CN,1691549333
218,edmundston,47.3737,-68.3251,16.63,90,100,4.63,CA,1691549427
219,vila do maio,15.1333,-23.2167,26.44,74,100,5.54,CV,1691549428
220,sola,-13.8833,167.55,24.15,86,100,9.24,VU,1691549428
221,gadzhiyevo,69.2551,33.3362,16.27,78,0,4.37,RU,1691549150
222,nagqu,31.5,92.0,13.13,62,7,3.54,CN,1691549429
223,mount pearl,47.5166,-52.7813,12.75,89,100,2.57,CA,1691549166
224,vila velha,-20.3297,-40.2925,22.97,95,100,7.15,BR,1691549143
225,ndioum,16.5129,-14.6471,27.28,58,3,6.46,SN,1691549431
226,owase,34.0667,136.2,27.62,92,82,3.11,JP,1691549431
227,hasaki,35.7333,140.8333,32.39,90,100,6.73,JP,1691549153
228,kathmandu,27.7167,85.3167,24.12,85,75,0.0,NP,1691549286
229,portland,45.5234,-122.6762,29.99,46,20,3.6,US,1691548696
230,el calafate,-50.3408,-72.2768,1.52,92,88,0.68,AR,1691549093
231,tura,25.5198,90.2201,25.52,90,100,2.32,IN,1691549104
232,puerto colombia,10.9878,-74.9547,28.05,87,100,6.99,CO,1691549434
233,hithadhoo,-0.6,73.0833,27.46,75,42,2.3,MV,1691549179
234,santa marta de ortigueira,43.6833,-7.85,19.93,75,0,3.42,ES,1691549435
235,vladimirovac,45.0331,20.8639,12.88,76,41,1.09,RS,1691549436
236,san jose del guaviare,2.5729,-72.6459,22.77,95,87,0.81,CO,1691549436
237,sharanga,57.1775,46.5396,14.96,89,4,3.03,RU,1691549437
238,bratca,46.9333,22.6167,11.64,68,5,1.71,RO,1691549437
239,callao,-12.0667,-77.15,21.16,73,20,6.17,PE,1691549157
240,tamanrasset,22.785,5.5228,25.95,36,5,2.06,DZ,1691549438
241,shingu,33.7333,135.9833,27.69,93,63,3.26,JP,1691549224
242,lashio,22.9333,97.75,21.61,97,99,1.1,MM,1691549439
243,broome,42.2506,-75.833,18.81,91,92,3.13,US,1691549439
244,uturoa,-16.7333,-151.4333,25.45,82,99,7.37,PF,1691549146
245,pokhara,28.2333,83.9833,24.45,92,100,0.69,NP,1691549043
246,vilhena,-12.7406,-60.1458,22.97,49,23,0.44,BR,1691549440
247,severo-yeniseyskiy,60.3725,93.0408,17.05,60,19,2.63,RU,1691549156
248,luanda,-8.8368,13.2343,20.0,88,75,2.06,AO,1691549441
249,kiunga,-6.1219,141.2906,30.1,52,65,2.33,PG,1691549442
250,mo i rana,66.3128,14.1428,18.26,68,28,8.23,NO,1691549442
251,fredericton,45.9454,-66.6656,17.58,93,100,4.12,CA,1691549221
252,trenggalek,-8.05,111.7167,28.75,100,27,4.0,ID,1691549443
253,katima mulilo,-17.5,24.2667,12.96,56,0,2.41,NA,1691549443
254,ad dabbah,18.05,30.95,33.63,38,10,5.68,SD,1691549444
255,nemuro,43.3236,145.575,19.44,99,100,7.13,JP,1691549081
256,cidade velha,14.9167,-23.6167,26.26,69,75,4.12,CV,1691549216
257,caratinga,-19.7897,-42.1392,17.0,89,3,2.69,BR,1691549445
258,kill devil hills,36.0307,-75.676,26.1,83,0,0.0,US,1691549446
259,arvika,59.6553,12.5852,11.34,96,100,4.38,SE,1691549446
260,tomelloso,39.1522,-3.0243,29.18,37,7,0.69,ES,1691549446
261,hanahan,32.9185,-80.022,30.03,74,75,4.63,US,1691549447
262,st. john's,47.5649,-52.7093,13.21,89,100,2.57,CA,1691549093
263,maqat,47.65,53.3167,28.76,35,0,3.27,KZ,1691549448
264,terme,41.2092,36.9739,24.96,84,99,3.5,TR,1691549448
265,al ghayzah,16.2079,52.176,25.8,87,100,3.79,YE,1691549448
266,lagoa,39.05,-27.9833,22.7,90,90,6.42,PT,1691549449
267,mejit,10.2753,170.8646,28.33,73,72,5.74,MH,1691549174
268,hillsborough,37.5741,-122.3794,22.93,84,20,6.17,US,1691549450
269,mezhdurechensk,53.6942,88.0603,21.81,53,38,0.43,RU,1691549450
270,lokomotivnyy,53.0118,60.5684,14.67,97,96,4.02,RU,1691549451
271,san antonio de pale,-1.4014,5.6325,23.26,79,30,6.02,GQ,1691549096
272,touros,-5.1989,-35.4608,23.77,87,100,4.56,BR,1691549116
273,new norfolk,-42.7826,147.0587,14.4,44,100,1.75,AU,1691549142
274,tadmur,34.5608,38.2805,25.41,57,0,3.75,SY,1691549452
275,tokar,18.4254,37.729,34.78,45,70,10.99,SD,1691549453
276,santo antonio do ica,-3.1022,-67.9397,22.95,94,56,1.02,BR,1691549453
277,cidreira,-30.1811,-50.2056,16.13,76,100,9.53,BR,1691549138
278,mana,5.6592,-53.7767,25.53,87,100,4.1,GF,1691549148
279,pitkyaranta,61.5734,31.4792,16.49,88,93,2.78,RU,1691549454
280,ilha solteira,-20.4328,-51.3425,21.0,66,0,6.54,BR,1691549455
281,hadibu,12.65,54.0333,25.69,80,100,11.25,YE,1691549204
282,keflavik,64.0049,-22.5624,8.24,93,0,3.6,IS,1691549144
283,yarmouth,41.7057,-70.2286,23.33,88,75,4.63,US,1691549456
284,singkil,-7.9855,111.4161,28.65,49,1,3.92,ID,1691549456
285,tetyushi,54.9382,48.8366,17.61,80,0,4.63,RU,1691549457
286,cuencame de ceniceros,24.8711,-103.6964,27.96,25,37,1.78,MX,1691549457
287,kendari,-3.945,122.4989,29.07,63,26,2.24,ID,1691549227
288,kalundborg,55.6795,11.0886,13.86,76,100,13.85,DK,1691549458
289,hegang,47.4,130.3667,20.05,82,100,2.35,CN,1691549458
290,aykhal,66.0,111.5,24.4,42,6,8.74,RU,1691549125
291,oban,56.4127,-5.4706,10.77,85,33,0.59,GB,1691549459
292,devarkonda,16.7,78.9333,27.65,66,100,6.29,IN,1691549460
293,yaren,-0.5472,166.916,27.87,76,99,3.59,NR,1691549225
294,charcas,23.1333,-101.1167,20.52,56,0,5.59,MX,1691549460
295,nelson bay,-32.7167,152.15,20.05,63,0,1.34,AU,1691549461
296,vadso,70.0744,29.7487,19.49,77,0,1.54,NO,1691549220
297,aral,40.5156,81.2636,31.05,25,0,2.96,CN,1691549462
298,barbacoas,1.6715,-78.1398,24.86,95,100,0.42,CO,1691549462
299,nola,40.922,14.5329,22.92,78,10,0.81,IT,1691549463
300,tual,-5.6667,132.75,25.57,81,24,8.74,ID,1691549463
301,watsa,3.0372,29.5355,17.27,93,100,1.09,CD,1691549464
302,mandera,3.9366,41.867,23.02,71,8,6.07,KE,1691549465
303,arraial do cabo,-22.9661,-42.0278,20.82,85,100,8.22,BR,1691549076
304,aleksandrovskoye,44.7142,43.0008,26.57,52,51,0.36,RU,1691549466
305,moose jaw,50.4001,-105.5344,19.36,36,100,3.73,CA,1691549466
306,antsiranana,-12.2787,49.2917,21.33,81,5,5.04,MG,1691549466
307,punta del este,-34.9667,-54.95,10.49,88,0,4.12,UY,1691549114
308,rawlins,41.7911,-107.2387,11.94,76,0,1.54,US,1691549408
309,kralendijk,12.15,-68.2667,28.99,84,1,5.66,BQ,1691549469
310,mata-utu,-13.2816,-176.1745,27.99,73,2,3.23,WF,1691549469
311,alofi,-19.0595,-169.9187,27.94,83,75,4.63,NU,1691549148
312,kone,-21.0595,164.8658,22.61,44,5,5.97,NC,1691549087
313,taulaga,-11.0553,-171.0883,27.56,81,46,5.73,AS,1691549242
314,najran,17.4924,44.1277,26.36,18,63,1.69,SA,1691549339
315,yanchep,-31.55,115.6833,17.56,51,1,2.57,AU,1691549471
316,rio grande,-32.035,-52.0986,14.41,74,99,8.1,BR,1691549472
317,pucon,-39.2822,-71.9543,9.8,80,100,1.28,CL,1691549472
318,puerto baquerizo moreno,-0.9,-89.6,23.43,79,98,5.35,EC,1691548943
319,saldanha,-33.0117,17.9442,8.03,81,0,4.42,ZA,1691549221
320,puerto santa,-8.9906,-78.6456,20.02,82,94,4.04,PE,1691549236
321,antigonish,45.6169,-61.9986,18.97,92,100,1.79,CA,1691549474
322,karsun,54.1994,46.9827,18.32,63,2,1.59,RU,1691549474
323,sirte,31.2089,16.5887,25.38,67,0,4.86,LY,1691549475
324,markovo,57.3206,107.0881,21.97,65,82,1.77,RU,1691549476
325,heber city,40.5069,-111.4132,20.79,30,0,4.12,US,1691549476
326,remire-montjoly,4.9167,-52.2667,25.02,94,20,0.0,GF,1691549100
327,antanifotsy,-19.65,47.3167,9.96,91,95,0.88,MG,1691549478
328,muromtsevo,56.3724,75.2418,20.38,58,49,2.42,RU,1691549478
329,ancud,-41.8697,-73.8203,10.27,97,100,5.63,CL,1691549106
330,okotoks,50.7289,-113.9828,17.83,89,100,1.79,CA,1691548805
331,chongqing,29.5628,106.5528,34.18,61,0,2.0,CN,1691549480
332,saint-francois,46.4154,3.9054,11.69,87,0,0.0,FR,1691549235
333,murzuq,25.9155,13.9184,26.56,32,0,4.31,LY,1691549480
334,katsuura,35.1333,140.3,31.01,89,99,6.82,JP,1691549147
335,howard springs,-12.497,131.047,29.9,28,59,4.83,AU,1691549184
336,kerikeri,-35.2268,173.9474,14.01,49,81,2.96,NZ,1691549077
337,ad dilam,23.9915,47.1627,32.23,10,0,2.56,SA,1691549482
338,dakhla,23.6848,-15.958,20.1,93,0,7.15,EH,1691549484
339,les cayes,18.2,-73.75,27.38,85,11,1.4,HT,1691549484
340,fuglafjordur,62.244,-6.814,8.26,86,98,13.66,FO,1691549484
341,pakala,13.4667,79.1167,27.23,57,100,5.3,IN,1691549485
342,strathaven,55.6771,-4.0668,10.26,91,84,3.34,GB,1691549485
343,pisco,-13.7,-76.2167,19.03,82,0,4.12,PE,1691549206
344,malvan,16.0667,73.4667,26.93,80,98,2.43,IN,1691549243
345,oum hadjer,13.2954,19.6966,22.86,91,100,4.47,TD,1691549486
346,margate,51.3813,1.3862,14.27,92,100,2.24,GB,1691549182
347,karratha,-20.7377,116.8463,27.5,26,0,4.33,AU,1691549111
348,escanaba,45.7453,-87.0646,18.98,100,0,0.0,US,1691549488
349,susuman,62.7833,148.1667,9.71,53,100,1.16,RU,1691549182
350,argostolion,38.1811,20.489,22.08,67,0,1.75,GR,1691549489
351,konstantinovka,49.6167,127.9833,22.95,66,93,3.48,RU,1691549489
352,cockburn town,21.4612,-71.1419,28.81,85,5,7.34,TC,1691549115
353,hilo,19.7297,-155.09,28.85,69,75,4.63,US,1691549212
354,sal rei,16.1833,-22.9167,24.84,74,100,5.4,CV,1691549490
355,floro,61.5996,5.0328,11.09,93,100,8.75,NO,1691549491
356,fort bragg,35.139,-79.006,27.75,70,40,2.57,US,1691549130
357,crane,31.3974,-102.3501,31.9,32,51,5.68,US,1691549126
358,roxas,11.5853,122.7511,31.75,64,96,1.24,PH,1691549492
359,sholokhovskiy,48.2807,41.0459,22.45,61,1,2.39,RU,1691549492
360,revda,56.801,59.9303,16.63,90,1,2.05,RU,1691549493
361,ulsteinvik,62.3432,5.8487,14.31,85,100,5.81,NO,1691549493
362,la passe,45.5549,-0.8967,14.43,63,1,2.94,FR,1691549188
363,villa maria grande,-31.6656,-59.9018,11.54,67,100,2.01,AR,1691549494
364,tidjikja,18.5564,-11.4271,30.11,28,4,7.35,MR,1691549093
365,carnarvon,-24.8667,113.6333,22.58,54,7,4.77,AU,1691549092
366,antofagasta,-23.65,-70.4,16.6,69,30,2.78,CL,1691549268
367,huilong,31.8111,121.655,30.16,73,8,6.46,CN,1691549496
368,trincomalee,8.5711,81.2335,29.14,65,100,7.1,LK,1691549496
369,thunder bay,48.4001,-89.3168,16.99,94,100,3.6,CA,1691549053
370,gaigeturi,33.4644,126.3183,26.03,94,100,8.23,KR,1691549497
371,quellon,-43.1167,-73.6167,10.14,100,100,5.14,CL,1691549498
372,skelleftea,64.7507,20.9528,15.2,100,2,3.09,SE,1691549498
373,corn island,12.1694,-83.0418,28.2,82,100,3.54,NI,1691549498
374,tannum sands,-23.9504,151.3693,23.94,43,5,6.69,AU,1691549499
375,luimneach,52.6647,-8.6231,17.27,95,98,1.48,IE,1691549499
376,mawu,29.5923,107.3139,32.11,60,0,0.83,CN,1691549500
377,benjamin hill,30.1667,-111.1,31.7,38,15,7.39,MX,1691549500
378,sinabang,2.4803,96.3801,26.94,79,100,0.16,ID,1691549501
379,plastun,44.7561,136.2939,19.22,81,100,2.52,RU,1691549501
380,kavarna,43.4333,28.3333,15.6,91,2,4.48,BG,1691549501
381,ribeira brava,32.65,-17.0667,22.62,75,11,2.16,PT,1691549502
382,zakamensk,50.3741,103.2863,21.06,82,100,0.94,RU,1691549502
383,luganville,-15.5333,167.1667,21.93,94,100,5.25,VU,1691549503
384,aswan,24.0934,32.907,33.61,16,0,2.06,EG,1691549206
385,kingston,17.997,-76.7936,30.53,82,20,4.63,JM,1691549486
386,ozersk,55.7556,60.7028,15.18,92,90,1.82,RU,1691549504
387,saint-joseph,-21.3667,55.6167,19.21,77,19,4.5,RE,1691549504
388,khanty-mansiysk,61.0042,69.0019,16.06,82,75,2.0,RU,1691549505
389,el abiodh sidi cheikh,32.893,0.5484,27.93,20,5,3.41,DZ,1691549506
390,dili,-8.5586,125.5736,27.5,56,65,3.8,TL,1691549506
391,lepsy,46.235,78.9456,26.23,40,99,5.0,KZ,1691549507
392,selfoss,63.9331,-20.9971,7.8,79,7,2.97,IS,1691549507
393,petropavlovsk-kamchatsky,53.0452,158.6483,22.33,46,40,2.0,RU,1691549099
394,prado,-17.3411,-39.2208,21.17,91,7,0.41,BR,1691549152
395,hammerfest,70.6634,23.6821,23.25,73,0,3.6,NO,1691549095
396,daru,-9.0763,143.2092,25.04,79,90,7.62,PG,1691549149
397,solleftea,63.1667,17.2667,14.92,89,95,6.11,SE,1691549510
398,nogliki,51.8333,143.1667,16.7,73,95,3.34,RU,1691549510
399,okhotsk,59.3833,143.3,18.18,48,1,2.86,RU,1691549511
400,urangan,-25.3,152.9,19.76,62,5,8.14,AU,1691549511
401,arkhara,49.4212,130.0842,21.97,69,96,3.39,RU,1691549511
402,grand baie,-20.0182,57.5802,20.26,74,0,0.45,MU,1691549300
403,muskogee,35.5834,-95.3336,26.12,75,0,2.06,US,1691549447
404,fale old settlement,-9.3852,-171.2468,28.01,79,29,5.31,TK,1691549081
405,talcahuano,-36.7167,-73.1167,11.82,94,100,3.09,CL,1691549514
406,bayville,40.9106,-73.5621,23.45,71,45,3.13,US,1691549514
407,port shepstone,-30.7414,30.455,17.77,71,78,5.42,ZA,1691549515
408,bodo,67.28,14.405,19.69,63,20,11.83,NO,1691549036
409,charters towers,-20.1,146.2667,25.16,27,63,6.38,AU,1691549239
410,yemetsk,63.4721,41.7941,15.05,84,1,1.89,RU,1691549516
411,madang,-5.2246,145.7966,29.68,65,28,3.75,PG,1691549516
412,bon-encontre,44.1852,0.6676,12.02,87,0,1.03,FR,1691549517
413,puerto rico,-26.796,-55.024,18.27,99,87,1.1,AR,1691549517
414,coahuayana de hidalgo,18.7,-103.6583,27.79,90,39,1.64,MX,1691549232
415,yardimli,38.9206,48.2372,23.58,42,0,1.24,AZ,1691549518
416,castillos,-34.1667,-53.8333,12.09,69,98,4.44,UY,1691549518
417,san isidro de curuguaty,-24.5167,-55.7,18.88,94,97,2.76,PY,1691549519
418,la sarre,48.8002,-79.1996,16.56,86,50,1.84,CA,1691549519
419,ilabaya,-17.4208,-70.5133,19.07,44,0,0.49,PE,1691549520
420,bako,5.7833,36.5667,17.07,87,100,1.28,ET,1691549520
421,saint croix,17.7397,-64.7388,29.25,79,20,7.2,VI,1691549521
422,rybnoye,54.7256,39.5119,19.09,95,41,1.95,RU,1691549521
423,porto novo,6.4965,2.6036,24.9,91,95,3.16,BJ,1691549112
424,kalmunai,7.4167,81.8167,29.05,64,100,1.83,LK,1691549522
425,el bauga,18.262,33.9081,32.87,42,36,6.31,SD,1691549523
426,jiuquan,39.7432,98.5174,30.98,23,57,9.3,CN,1691549523
427,zhicheng,30.2956,111.5047,31.21,64,10,2.97,CN,1691549524
428,mendi,-6.1761,143.6513,17.27,75,98,2.15,PG,1691549524
429,bengkulu,-3.8004,102.2655,27.7,74,43,1.89,ID,1691549357
430,whitby,54.4877,-0.615,11.19,81,100,2.68,GB,1691549525
431,fada,9.5667,8.3,19.4,98,95,1.22,NG,1691549146
432,garissa,-0.4536,39.6401,21.92,85,11,5.19,KE,1691549526
433,loches,47.1333,1.0,14.19,84,77,2.19,FR,1691549526
434,hamamatsu,34.7,137.7333,27.23,96,87,1.34,JP,1691549527
435,richards bay,-28.783,32.0377,19.22,75,83,6.39,ZA,1691549527
436,quelimane,-17.8786,36.8883,17.97,93,75,2.24,MZ,1691549528
437,yuzhno-kurilsk,44.0306,145.8556,20.25,98,100,5.65,RU,1691549092
438,bamboo flat,11.7,92.7167,30.05,79,75,5.14,IN,1691549093
439,chibougamau,49.9168,-74.3659,11.79,94,100,2.57,CA,1691549163
440,tucurui,-3.7661,-49.6725,24.4,82,77,1.99,BR,1691549478
441,safi,32.1667,-8.8333,22.44,77,2,3.97,MA,1691549530
442,port-vila,-17.7338,168.3219,22.78,73,100,4.63,VU,1691549258
443,hirado,33.3597,129.5531,30.77,82,100,13.7,JP,1691549530
444,laojunmiao,39.8333,97.7333,25.66,29,86,8.27,CN,1691549119
445,acapulco de juarez,16.8634,-99.8901,28.47,88,12,3.26,MX,1691549301
446,el granada,37.5027,-122.4694,22.94,84,100,6.17,US,1691549159
447,mokhsogollokh,61.4681,128.9203,21.78,30,99,4.25,RU,1691549532
448,mournies,35.4764,24.0092,26.57,88,0,2.06,GR,1691549205
449,tibati,6.4667,12.6333,19.19,99,100,0.62,CM,1691549533
450,tromso,69.6496,18.957,20.21,82,100,1.03,NO,1691549533
451,kirakira,-10.4544,161.9205,26.85,81,100,3.59,SB,1691549227
452,saipan,15.1355,145.701,29.39,100,75,4.12,MP,1691549084
453,tarko-sale,64.9225,77.785,14.5,74,100,6.63,RU,1691549535
454,barrington,41.7407,-71.3087,23.05,80,75,5.14,US,1691549535
455,namibe,-15.1961,12.1522,16.84,89,1,3.08,AO,1691549098
456,gucheng chengguanzhen,32.266,111.6348,30.48,64,75,2.13,CN,1691549536
457,don carlos,7.68,125.005,28.94,67,100,2.23,PH,1691549536
458,sylacauga,33.1732,-86.2516,22.57,100,100,0.0,US,1691549537
459,noyabrsk,63.1994,75.4507,13.97,77,100,8.29,RU,1691549537
460,kailua-kona,19.6406,-155.9956,29.98,72,40,5.66,US,1691549291
461,yelizovo,53.1873,158.3805,23.08,46,40,2.0,RU,1691549539
462,kolonia town,6.964,158.206,29.06,84,100,5.14,FM,1691549243
463,bonthe,7.5264,-12.505,24.84,90,96,4.34,SL,1691549540
464,matoury,4.8483,-52.3317,24.98,94,20,0.0,GF,1691549540
465,east ballina,-28.8667,153.5833,19.33,63,10,5.0,AU,1691549540
466,igarka,67.4667,86.5833,18.78,61,75,3.12,RU,1691549541
467,nabire,-3.3667,135.4833,30.01,62,95,2.29,ID,1691549541
468,dharangaon,21.0167,75.2667,27.17,74,87,4.65,IN,1691549542
469,hell-ville,-13.4,48.2667,23.76,72,9,1.19,MG,1691549542
470,sparti,37.0733,22.4297,24.42,78,1,1.73,GR,1691549543
471,kalemie,-5.9475,29.1947,21.06,57,0,0.62,CD,1691549543
472,kitami,43.8031,143.8908,28.7,81,98,3.19,JP,1691549543
473,danjiangkou,32.5428,111.5086,30.71,63,98,2.73,CN,1691549544
474,jahanian shah,31.8055,72.2771,36.51,35,3,1.27,PK,1691549544
475,truth or consequences,33.1284,-107.2528,29.39,52,40,9.77,US,1691549545
476,griffith,41.5284,-87.4237,23.83,88,0,0.0,US,1691549545
477,bikenibeu village,1.3673,173.1241,30.98,58,75,2.57,KI,1691549546
478,funafuti,-8.5243,179.1942,31.0,84,75,3.09,TV,1691549161
479,alghero,40.5589,8.3181,14.05,82,0,1.03,IT,1691549546
480,farasan,16.7022,42.1183,31.07,71,63,5.32,SA,1691549547
481,erechim,-27.6342,-52.2739,11.05,95,100,5.5,BR,1691549547
482,taoyuan city,24.9937,121.297,33.34,70,75,11.83,TW,1691549548
483,undurkhaan,47.3194,110.6556,22.36,50,86,1.48,MN,1691549156
484,seminole,28.7086,-81.2081,32.2,76,0,3.09,US,1691549549
485,tevriz,57.509,72.4042,20.73,59,36,1.3,RU,1691549549
486,chandler,33.3062,-111.8412,40.04,29,20,5.66,US,1691549289
487,taltal,-25.4,-70.4833,17.62,64,24,1.5,CL,1691549177
488,nuku'alofa,-21.1333,-175.2,25.19,88,75,3.6,TO,1691549164
489,neryungri,56.6709,124.6491,23.98,43,100,2.19,RU,1691549551
490,aracati,-4.5617,-37.7697,25.02,70,99,4.73,BR,1691549551
491,newman,37.3138,-121.0208,30.99,34,0,3.97,US,1691549090
492,malango,-2.9627,119.9001,26.52,63,70,1.64,ID,1691549101
493,tan-tan,28.438,-11.1032,20.19,93,68,5.18,MA,1691549552
494,socorro,31.6546,-106.3033,34.16,34,40,8.23,US,1691549289
495,coracora,-15.0333,-73.7833,10.83,42,9,0.99,PE,1691549553
496,kisangani,0.5167,25.2,21.07,99,80,0.19,CD,1691549554
497,naryn,41.4287,75.9911,17.56,48,48,1.24,KG,1691549554
498,mandalgovi,45.7625,106.2708,24.61,37,78,9.6,MN,1691549555
499,akureyri,65.6835,-18.0878,7.96,76,0,3.09,IS,1691549556
500,hami,42.8,93.45,29.42,33,99,4.39,CN,1691549130
501,lethem,3.3803,-59.7968,25.17,83,95,2.42,GY,1691549556
502,egilsstadir,65.2653,-14.3948,4.95,93,100,0.51,IS,1691549557
503,duba,27.3513,35.6901,31.42,53,0,2.89,SA,1691549557
504,bereznik,62.8551,42.7072,15.13,84,1,2.01,RU,1691549558
505,roma,43.2128,-75.4557,18.86,96,100,3.6,US,1691549230
506,eyl,7.9803,49.8164,24.47,72,72,9.59,SO,1691549559
507,caiuti-sat,46.1833,26.9333,11.13,76,33,2.1,RO,1691549559
508,walvis bay,-22.9575,14.5053,13.53,88,100,2.57,NA,1691549559
509,mirnyy,62.5353,113.9611,24.02,41,0,1.79,RU,1691549560
510,santana do mundau,-9.1681,-36.2222,20.34,97,80,1.48,BR,1691549560
511,bulungu,-4.55,18.6,22.47,70,15,1.13,CD,1691549561
512,takoradi,4.8845,-1.7554,23.74,90,100,5.95,GH,1691549400
513,pizarro,4.9533,-77.366,25.66,89,100,0.8,CO,1691549140
514,dryden,49.7833,-92.7503,16.16,82,20,3.09,CA,1691549562
515,tralee,52.2704,-9.7026,16.24,97,99,2.06,IE,1691549096
516,buka,40.8108,69.1986,29.61,27,0,3.18,UZ,1691549563
517,lamu,-2.2717,40.902,24.12,87,54,5.29,KE,1691549563
518,kamina,-8.7386,24.9906,16.38,46,0,1.8,CD,1691549564
519,shelby,35.2001,-89.8668,25.06,90,0,0.0,US,1691549315
520,kavieng,-2.5744,150.7967,28.31,75,78,5.92,PG,1691549207
521,sumbawa besar,-8.5,117.4333,31.46,38,16,3.8,ID,1691549565
522,bosaso,11.2842,49.1816,32.08,40,73,12.09,SO,1691549566
523,simanggang,1.2472,111.4528,26.99,88,40,1.03,MY,1691549567
524,boca do acre,-8.7522,-67.3978,26.22,62,71,1.41,BR,1691549568
525,corinto,37.9407,22.9573,26.61,72,1,2.3,GR,1691549568
526,ritchie,-29.038,24.6028,11.31,30,0,2.67,ZA,1691549569
527,rabaul,-4.1967,152.1721,28.56,71,79,8.63,PG,1691549569
528,gorgan,36.8387,54.4348,21.98,83,0,0.0,IR,1691549122
529,swakopmund,-22.6833,14.5333,13.47,86,100,2.24,NA,1691549570
530,tonj,7.2737,28.6822,21.27,96,100,0.51,SS,1691549571
531,astrakhan,46.3497,48.0408,25.93,73,0,3.0,RU,1691549571
532,gaspe,48.8334,-64.4819,17.12,100,100,3.6,CA,1691549571
533,n'zeto,-7.2312,12.8666,21.33,87,100,2.82,AO,1691549572
534,nurmes,63.5421,29.1397,15.73,86,66,1.07,FI,1691549572
535,praia,14.9215,-23.5087,26.3,69,75,4.12,CV,1691549206
536,merizo village,13.2658,144.6691,29.43,93,54,5.24,GU,1691549125
537,greenville,35.6127,-77.3663,26.74,77,0,0.45,US,1691549574
538,dul'durga,50.6761,113.5931,24.34,40,100,3.8,RU,1691549574
539,sunland,38.8928,-101.8216,23.23,75,49,4.74,US,1691549575
540,cadale,2.7603,46.3222,24.4,85,100,7.9,SO,1691549575
541,khalkhal,37.6189,48.5258,18.58,57,0,1.27,IR,1691549576
542,sumbe,-11.2061,13.8437,19.81,89,54,1.08,AO,1691549576
543,north bend,43.4065,-124.2243,19.4,82,0,8.75,US,1691549577
544,guiratinga,-16.3494,-53.7583,23.84,38,5,1.84,BR,1691549577
545,ciudad bolivar,8.1222,-63.5497,26.05,84,90,1.7,VE,1691549577
546,prien,30.1819,-93.2738,31.01,81,0,4.63,US,1691549578
547,smithers,54.7804,-127.1743,17.18,82,75,2.06,CA,1691549202
548,goondiwindi,-28.55,150.3167,20.42,34,0,1.83,AU,1691549579
549,martapura,-3.4167,114.85,30.05,62,20,2.57,ID,1691549579
550,lorengau,-2.0226,147.2712,29.1,70,79,7.94,PG,1691549103
551,opuwo,-18.0607,13.84,14.21,38,12,0.69,NA,1691549230
552,salinopolis,-0.6136,-47.3561,26.11,83,72,4.67,BR,1691549580
553,nelson,-41.2833,173.2833,10.72,72,47,0.45,NZ,1691549581
554,huron,41.1501,-82.5499,22.05,88,64,3.41,US,1691549581
555,happy valley-goose bay,53.3168,-60.3315,15.17,82,40,1.03,CA,1691548923
556,isangel,-19.55,169.2667,24.06,64,75,3.09,VU,1691549582
557,lazaro cardenas,17.9583,-102.2,28.89,84,25,3.15,MX,1691549582
558,imbituba,-28.24,-48.6703,17.7,76,100,3.85,BR,1691549409
